id_origen,tipo_original,nombre,num_registro,unidades_alojamiento,plazas_camas,categoria_original,descripcion_corta,descripcion_larga,email,telefono,web,pais,comunidad_autonoma,provincia,comarca,localidad,codigo_postal,direccion,latitud,longitud
cyl-0,Hostal,EL RASTRO,05/000003,8,16,2,Acogedor hostal junto a la muralla.,,info@elrastroavila.com,920211218,www.elrastroavila.com,España,Castilla y León,Ávila,Valle de Amblés,AVILA,05001,"Plaza PLAZA DEL RASTRO, 1",40.654666,-4.701180
cyl-2,Aparthotel,APARTAMENTOS TURISTICOS DE SORIA,42/000017,12,24,3,Apartamentos céntricos.,,contacto@apartamentosturisticosdesoria.es,975228566,www.apartamentosturisticosdesoria.es,España,Castilla y León,Soria,Soria,SORIA,42001,"Calle NUMANCIA 41",41.764166,-2.466388
aragon-1,Hotel,ENCANTO TARAZONA,H-ZARAGOZA-21-006,16,26,3,Hotel boutique en el centro.,,administracion@gestoriapellice.es,976643331,www.encantotarazona.com,España,Aragón,Zaragoza,Tarazona y el Moncayo,TARAZONA,50500,"PLAZA ESPAÑA, 9 BIS",41.903100,-1.726800
gijon-2,Hostel,Albergue Covadonga,H-AS-001,10,30,1,Albergue turístico en Gijón.,,info@alberguecovadonga.com,985319031,www.alberguecovadonga.com,España,Asturias,Asturias,Gijón,Gijón,33207,"C/Diario el Comercio, s/n",43.538812,-5.674062
gijon-0,Vacation Rentals,Liv Home,VV-1234,5,10,3,Casa de Aldea a 5 minutos de Gijón.,Esta Casa de Aldea se encuentra a tan solo 5 minutos de Gijón en un entorno tranquilo ideal para desconectar de la ciudad.,info@livhome.es,648951105,https://livhome.es/,España,Asturias,Asturias,Gijón,Gijón,33390,"Camino del Reganorio, 40",43.511200,-5.632100
alcala-0,Alcazar,Palacio Arzobispal,CM-MAD-003,0,0,0,Residencia histórica fortificada.,Palacio fortificado compuesto por zonas construidas en diferentes etapas históricas. Hoy alberga el obispado y valiosos archivos.,turismo@ayto-alcaladehenares.es,918892694,www.turismoalcala.es,España,Comunidad de Madrid,Madrid,Corredor del Henares,Alcalá de Henares,28801,"Plaza Palacio, s/n",40.482200,-3.364400
alcala-1,Amphiteatre,Complutum,CM-MAD-004,0,0,0,Restos del anfiteatro romano.,Antigua ciudad romana que alberga los restos de la infraestructura de espectáculos y vida pública de la antigua Complutum.,complutum@ayto-alcaladehenares.es,918892694,www.turismoalcala.es,España,Comunidad de Madrid,Madrid,Corredor del Henares,Alcalá de Henares,28802,"Camino del Juncal, 12",40.481240,-3.371143
seg-0,Acueduct,Acueducto de Segovia,BIC-SEG-001,0,0,0,Obra de ingeniería civil romana.,El Acueducto de Segovia es una de las obras de ingeniería civil romana más impresionantes y mejor conservadas que conducía las aguas a la ciudad.,turismo@segovia.es,921466720,www.turismosegovia.com,España,Castilla y León,Segovia,Segovia,Segovia,40001,"Plaza del Azoguejo, 1",40.948100,-4.118300